Library Code,Library Name,Latitude,Longitude
127058,2.28도서관,35.8592504,128.5894055
148096,U보라작은도서관,35.223558,128.874226
111456,가락몰도서관,37.492994,127.112326
125010,가수원도서관,36.3019,127.348812
111287,가슴따뜻한작은도서관,37.5814481,126.9111617
125008,가오도서관,36.3124314,127.4553237
131059,가온누리작은도서관,35.6454614,129.346506
111108,가온도서관,37.5563885,127.010869
127065,가창면 참꽃 작은도서관,35.8023213,128.623414
141143,가평군 설악도서관,37.683239,127.4908736
141105,가평군 조종도서관,37.818321,127.3529165
141286,가평군 청평도서관,37.7395914,127.4241821
141001,가평군 한석봉도서관,37.8248081,127.5067831
125004,갈마도서관,36.3409156,127.3656805
111463,갈산도서관,37.5089368,126.8671234
711308,갈현1동문화의집,37.623970,126.916586
143124,감곡도서관,37.1196808,127.6371611
111070,강남구립논현도서관,37.5173333,127.0372
111039,강남구립대치도서관,37.4953832,127.063706
111347,강남구립도곡정보문화도서관,37.4882371,127.0392707
111479,강남구립못골도서관,37.471524,127.096698
111474,강남구립못골한옥어린이도서관,37.473163,127.099305
111103,강남구립역삼도서관,37.4952602,127.033191
111127,강남구립역삼푸른솔도서관,37.4964736,127.031856
711265,강남구립열린도서관,37.483932,127.084402
111518,강남구립일원라온영어도서관,37.4817136,127.0822397
111073,강남구립정다운도서관,37.5190642,127.046371
111056,강남구립즐거운도서관,37.4997257,127.057818
111069,강남구립청담도서관,37.5250583,127.0493
111075,강남구립행복한도서관,37.5022554,127.06415
111125,강동구립강일도서관,37.5650504,127.1738009
111501,강동구립둔촌도서관,37.5315801,127.1483305
111078,강동구립성내도서관,37.5327964,127.1333283
111176,강동구립암사도서관,37.5528007,127.1333457
111470,강동구립천호도서관,37.5408046,127.1338987
111101,강동구립해공도서관,37.5443685,127.126709
111037,강북문화정보도서관,37.6248352,127.0360823
111038,강북청소년문화정보도서관,37.6230299,127.0215671
111453,강서구립가양도서관,37.559397,126.8653386
111378,강서구립곰달래도서관,37.5291122,126.8490778
111067,강서구립길꽃어린이도서관,37.5786886,126.8138658
111098,강서구립꿈꾸는어린이도서관,37.5473333,126.8731625
111309,강서구립등빛도서관,37.5624339,126.8423536
111118,강서구립우장산숲속도서관,37.5484267,126.8418183
111097,강서구립푸른들청소년도서관,37.544683,126.8351
111373,강서영어도서관,37.5349763,126.8604366
142001,강원특별자치도교육청 강릉교육문화관,37.745942,128.9000051
142003,강원특별자치도교육청 고성교육도서관,38.4392611,128.4500889
142089,강원특별자치도교육청 동해교육도서관,37.5384865,129.109787
142006,강원특별자치도교육청 명주교육도서관,37.8867734,128.8263907
142007,강원특별자치도교육청 문막교육도서관,37.3050229,127.8146418
142008,강원특별자치도교육청 삼척교육문화관,37.445145,129.1650073
142010,강원특별자치도교육청 속초교육도서관,38.2026986,128.5804605
142011,강원특별자치도교육청 양구교육도서관,38.101864,127.9874258
142012,강원특별자치도교육청 양양교육도서관,38.0758946,128.618285
142013,강원특별자치도교육청 영월교육도서관,37.1802997,128.4588221
142014,강원특별자치도교육청 원주교육문화관,37.3517321,127.9359125
142016,강원특별자치도교육청 인제교육도서관,38.0702268,128.1706713
142017,강원특별자치도교육청 정선교육도서관,37.3782494,128.6613918
142018,강원특별자치도교육청 철원교육도서관,38.2106209,127.2122376
142019,강원특별자치도교육청 춘성교육도서관,37.9273184,127.7506508
142021,강원특별자치도교육청 춘천교육문화관,37.8757842,127.7241858
142023,강원특별자치도교육청 태백교육도서관,37.1578745,128.989316
142024,강원특별자치도교육청 평창교육도서관,37.3696066,128.3943975
142025,강원특별자치도교육청 홍천교육도서관,37.6916857,127.8839978
142026,강원특별자치도교육청 화천교육도서관,38.1074923,127.7042923
142027,강원특별자치도교육청 횡성교육도서관,37.4871586,127.9795054
142009,강원특별자치도교육청속초교육문화관,38.2063896,128.5861305
146001,강진군도서관,34.640635,126.7695711
741161,강촌공원작은도서관,37.6450775,126.7952074
111216,개봉도서관,37.4897388,126.8583705
111240,개울건강도서관,37.5259388,126.8566029
11134706,개포4동작은도서관,37.4787976,127.051507
111049,거마도서관,37.4935096,127.1468394
148302,거제시립수양도서관,34.8877852,128.6462266
148317,거제시립아주도서관,34.8633998,128.6938561
148089,거제시립옥포도서관,34.8970408,128.6875731
148033,거제시립장승포도서관,34.8699012,128.7313594
148184,거제시립장평도서관,34.889635,128.609325
148307,거제시립하청도서관,34.9554532,128.6550841
148046,거창군립한마음도서관,35.6891619,127.9037437
745073,검산작은도서관,35.8074283,126.8964428
141004,경기과천교육도서관,37.432262,126.9965747
141005,경기광주교육도서관,37.4108381,127.2552863
141006,경기김포교육도서관,37.6209475,126.7117185
141008,경기성남교육도서관,37.2979705,127.0232861
141012,경기여주가남교육도서관,37.2041633,127.5461529
141106,경기의정부교육도서관,37.763362,127.036438
141010,경기중앙교육도서관,37.2979705,127.0232861
141141,경기평생교육학습관,37.2522357,127.0321226
141009,경기평택교육도서관,37.0730819,127.0626649
141017,경기포천교육도서관,37.8944791,127.2018087
141130,경기화성교육도서관,37.1331056,126.9201978
148308,경남대표도서관,35.2490494,128.6820973
147168,경북도서관,36.5743881,128.4879321
147001,경산시립도서관,35.9132142,128.8129935
147165,경산시립장산도서관,35.8142997,128.7311778
148001,경상남도교육청 거제도서관,34.8789706,128.6229211
148002,경상남도교육청 거창도서관,35.6871543,127.9115485
148003,경상남도교육청 고성도서관,34.9792068,128.3263477
148004,경상남도교육청 김해도서관,35.2327245,128.873884
148312,경상남도교육청 김해지혜의바다도서관,35.236152,128.8215732
148032,경상남도교육청 남지도서관,35.3891529,128.4713668
148005,경상남도교육청 남해도서관,34.8343568,127.8948644
148006,경상남도교육청 마산도서관,35.2130262,128.584792
148310,경상남도교육청 마산지혜의바다도서관,35.2567086,128.597716
148007,경상남도교육청 밀양도서관,35.4000943,128.8414162
148009,경상남도교육청 사천도서관,35.0833041,128.0874714
148010,경상남도교육청 산청도서관,35.4168475,127.8764157
148316,경상남도교육청 산청지리산도서관,35.3014196,127.9744965
148011,경상남도교육청 삼천포도서관,34.9533106,128.0772786
148012,경상남도교육청 양산도서관,35.3477893,129.0439266
148019,경상남도교육청 의령도서관,35.319722,128.2669478
148034,경상남도교육청 진동도서관,35.1193316,128.4897935
148020,경상남도교육청 진양도서관,35.1670616,128.1660324
148021,경상남도교육청 진영도서관,35.3047655,128.7414169
148024,경상남도교육청 창녕도서관,35.5359284,128.5035663
148025,경상남도교육청 창원도서관,35.2243237,128.6641208
148026,경상남도교육청 통영도서관,34.8278389,128.4161814
148036,경상남도교육청 하남도서관,35.3763692,128.7121536
148027,경상남도교육청 하동도서관,35.0638743,127.7447672
148028,경상남도교육청 함안도서관,35.2714708,128.4082277
148029,경상남도교육청 함양도서관,35.5211121,127.7270663
148030,경상남도교육청 합천도서관,35.5643101,128.1689735
147002,경상북도교육청 고령도서관,35.7311981,128.2675909
147003,경상북도교육청 구미도서관,36.1238074,128.3315119
147014,경상북도교육청 금호도서관,35.9343797,128.8806563
147007,경상북도교육청 봉화도서관,36.8883933,128.7401267
147008,경상북도교육청 상주도서관,36.4120515,128.1584487
147040,경상북도교육청 상주도서관 화령분관,36.44241,127.945837
147009,경상북도교육청 성주도서관,35.9275785,128.2835825
147010,경상북도교육청 안동도서관,36.5614924,128.7170411
147011,경상북도교육청 안동도서관 용상분관,36.5576204,128.7516426
147039,경상북도교육청 안동도서관 풍산분관,36.5767134,128.5752714
147031,경상북도교육청 영덕도서관,36.4146875,129.3680705
147012,경상북도교육청 영양도서관,36.6606963,129.1108249
147013,경상북도교육청 영일도서관,36.113839,129.345885
147032,경상북도교육청 영주선비도서관,36.8198818,128.6062617
147024,경상북도교육청 영주선비도서관 풍기분관,36.8708438,128.5196398
147015,경상북도교육청 예천도서관,36.6554127,128.4546282
147016,경상북도교육청 외동도서관,35.7172229,129.3245128
147017,경상북도교육청 울릉도서관,37.4993877,130.901446
147018,경상북도교육청 울진도서관,36.9863869,129.3994624
147019,경상북도교육청 의성도서관,36.3537544,128.700792
147020,경상북도교육청 점촌도서관,36.6058736,128.2045857
147006,경상북도교육청 점촌도서관 가은분관,36.6470547,128.0618016
147021,경상북도교육청 청도도서관,35.6452984,128.7400677
147022,경상북도교육청 청송도서관,36.4366493,129.0552349
147023,경상북도교육청 칠곡도서관,35.996273,128.4035346
147105,경상북도교육청문화원 종합정보자료실,36.0736127,129.3913615
347034,경상북도교육청연수원 도서관,36.1243423,128.3221001
147046,경상북도교육청정보센터,35.822663,128.7441109
147042,경주시립감포도서관,35.798772,129.4929311
147044,경주시립단석도서관,35.8517385,129.1025403
147025,경주시립도서관,35.8598841,129.2186252
147120,경주시립송화도서관,35.8421572,129.1816974
147026,경주시립중앙도서관,35.8384087,129.2076376
147052,경주시립칠평도서관,35.992291,129.2186912
144055,고대웃음꽃 작은도서관,36.9364382,126.59208
111312,고맙습니다 하난곡작은도서관,37.4767912,126.9199313
144111,고북작은도서관,36.667254,126.533492
741758,고암작은도서관,37.8333114,127.0708782
141574,고양시립가좌도서관,37.6861719,126.7202262
141139,고양시립대화도서관,37.6809678,126.753923
141398,고양시립덕이도서관,37.7029746,126.754531
141055,고양시립마두도서관,37.6664887,126.782103
141073,고양시립백석도서관,37.6472487,126.793775
141635,고양시립별꿈도서관,37.6534467,126.8519658
141555,고양시립삼송도서관,37.6488432,126.884639
141388,고양시립식사도서관,37.6760845,126.815918
141546,고양시립신원도서관,37.6663747,126.886347
141123,고양시립아람누리도서관,37.6615541,126.7745
141059,고양시립원당도서관,37.6562321,126.838837
141631,고양시립일산도서관,37.6850421,126.7642552
141124,고양시립주엽어린이도서관,37.6684857,126.756534
141150,고양시립풍동도서관,37.6705562,126.795196
141140,고양시립한뫼도서관,37.6935842,126.776286
141018,고양시립행신도서관,37.6207524,126.828326
141126,고양시립행신어린이도서관,37.6147771,126.843475
141072,고양시립화정도서관,37.637831,126.837192
141125,고양시립화정어린이도서관,37.6328887,126.826242
741193,고양윤창작은도서관,37.7057387,126.8948322
741190,고양작은도서관,37.7024393,126.9012101
150009,고운남측도서관,36.5049652,127.235359
150004,고운동도서관,36.5197146,127.236587
141591,고촌도서관,37.6032053,126.7711481
741297,고현초꿈키움도서관,37.1336377,127.0854297
146035,고흥군립남부도서관,34.5275467,127.1415292
146051,고흥군립북부도서관,34.780904,127.3306506
146077,고흥군립중앙도서관,34.609695,127.2889664
111512,공릉행복도서관,37.6223104,127.0727525
144043,공주기적의도서관,36.45934,127.1266693
144014,공주시 웅진도서관,36.460818,127.1111132
141062,과천시정보과학도서관,37.4187291,126.9897092
141202,관산작은도서관,37.6879734,126.8625188
111217,관악산詩도서관,37.4681523,126.9455001
111045,관악중앙도서관,37.4671252,126.9448168
130023,관평도서관,36.4262899,127.3897975
741089,광남작은도서관,37.3855352,127.2365257
141080,광명시광명도서관,37.4653018,126.8513075
141561,광명시소하도서관,37.4454883,126.8880089
141613,광명시연서도서관,37.482755,126.8646514
141405,광명시철산도서관,37.4769575,126.8723412
141155,광명시충현도서관,37.4340114,126.8847294
141019,광명시하안도서관,37.4676204,126.8735159
129001,광산구립신가도서관,35.1827519,126.8285849
129005,광산구립운남어린이도서관,35.1730207,126.8219798
129223,광산구립이야기꽃도서관,35.1484289,126.7798985
129190,광산구립장덕도서관,35.1910934,126.8140936
129002,광산구립첨단도서관,35.2167923,126.832239
146049,광양용강도서관,34.9741298,127.607381
146050,광양중마도서관,34.9374495,127.6905967
146024,광양중앙도서관,34.9802034,127.5875486
146177,광양희망도서관,34.9751297,127.5805497
129225,광주 북구 양산도서관,37.6036883,127.0226004
129131,광주 북구 운암도서관,35.1801822,126.8753206
124010,광주 북구 일곡도서관,35.208023,126.895467
129226,광주 북구 중흥도서관,35.169805,126.9144483
124009,광주 서구 공공도서관,35.1308667,126.8603824
129222,광주 서구 상록도서관,35.1551865,126.8889039
129004,광주 서구 어린이생태학습도서관,35.1297987,126.8818583
124003,광주광역시립무등도서관,35.1765283,126.9253482
124004,광주광역시립사직도서관,35.1395202,126.9139332
124008,광주광역시립산수도서관,35.1543981,126.9284698
124012,광주남구문화정보도서관,35.1220332,126.9175553
129224,광주남구청소년도서관,35.1207747,126.9071242
129219,광주남구푸른길도서관,35.1292558,126.8951485
124001,광주송정다가치문화도서관,35.1453164,126.7996039
141235,광주시립곤지암도서관,37.3489171,127.3410147
141576,광주시립능평도서관,37.3496999,127.1671923
141236,광주시립오포도서관,37.3692382,127.2312356
141114,광주시립중앙도서관,37.4105616,127.2528784
141512,광주시립초월도서관,37.3870605,127.2909196
124002,광주중앙도서관,35.1485032,126.9253348
129221,광주중앙도서관 분관 최상준도서관,35.1876539,126.897735
124011,광주학생교육문화회관,35.1570531,126.858156
124005,광주학생독립운동기념회관,35.1416737,126.8659601
111036,광진정보도서관,37.5510185,127.1105699
144033,광천공공도서관,36.4959512,126.6199846
143001,괴산교육도서관,36.8109221,127.7920861
145133,교동골작은도서관,35.7969055,126.8797427
141129,구갈희망누리도서관,37.2726108,127.13032
741008,구래작은도서관,37.2937629,127.0000255
146040,구례군 매천도서관,35.2025,127.4627778
111489,구로기적의도서관,37.5071053,126.8775035
111099,구로꿈나무어린이도서관,37.4898684,126.8872465
147125,구룡포 미르아라작은도서관,35.9911577,129.552533
141020,구리시 교문도서관,37.5951497,127.13455
141070,구리시 인창도서관,37.6050723,127.1456099
141225,구리시 토평도서관,37.5860642,127.1457728
111458,구립구산동도서관마을,37.609945,126.912942
111482,구립내를건너서숲으로도서관,37.5913717,126.9078047
111126,구립상림도서관,37.644362,126.928860
111491,구립은뜨락도서관,37.6123992,126.9292744
111452,구립은평뉴타운도서관,37.636592,126.931654
111124,구립응암정보도서관,37.586221,126.919621
111110,구립증산정보도서관,37.582973,126.907543
147062,구미시립봉곡도서관,36.1529195,128.3076996
147119,구미시립상모정수도서관,36.0873769,128.3564442
147029,구미시립선산도서관,36.2387879,128.3048705
147169,구미시립양포도서관,36.1387724,128.4187321
147051,구미시립인동도서관,36.0990913,128.4236401
147038,구미시립중앙도서관,36.1140333,128.335603
141118,구성도서관,37.2965012,127.1189634
130022,구암도서관,36.3492563,127.3300408
111305,구의제3동도서관,37.5380702,127.0896864
125013,구즉도서관,36.4294702,127.3805883
727011,구지면 작은도서관,35.6604264,128.415043
50001,국립세종도서관,36.4989631,127.268342
711352,국사봉숲속작은도서관,37.4956113,126.9388023
145036,군산교육문화회관,35.9708598,126.7365741
145009,군산교육문화회관 대야분관,35.9489434,126.8188947
145155,군산시립금강도서관,35.9676772,126.7366293
145121,군산시립늘푸른도서관,35.9606645,126.6989171
145002,군산시립도서관,35.9658352,126.7112168
145151,군산시립산들도서관,35.9204731,126.6696889
145122,군산시립설림도서관,35.9730164,126.6844042
145029,군산시립임피채만식도서관,35.9872902,126.8486696
111521,군자동도서관,37.5554909,127.0754515
141135,군포시중앙도서관,37.3551341,126.9157442
111471,궁동어린이도서관,37.4837252,126.8413333
131061,극동푸른작은도서관,35.6415845,129.3480783
147141,근남작은도서관,36.9636125,129.3955823
147121,근로종합복지회관작은도서관,35.9772867,129.379979
741001,글마루작은도서관,37.4789141,126.796399
111235,글마루한옥어린이도서관,37.5068616,126.8456141
148170,글밭작은도서관,34.8843826,128.6189394
111500,글빛도서관,37.6041556,127.0224390
111062,글빛정보도서관,37.4861679,126.95965
148075,글혜윰작은도서관,35.310179,128.730168
144041,금산기적의도서관,36.1109996,127.4906171
144046,금산인삼고을도서관,36.1112746,127.4912762
144069,금산작은도서관,36.0975478,127.4916323
143017,금왕교육도서관,36.9901121,127.5921688
111077,금천구립가산도서관,37.4734504,126.8921274
111113,금천구립금나래도서관,37.4567667,126.8954005
111040,금천구립독산도서관,37.4674481,126.9080502
111434,금천구립시흥도서관,37.4524516,126.9070357
741292,금촌무지개작은도서관,37.766106,126.774515
124007,금호평생교육관,35.1453424,126.9006562
147108,기계면 버드내작은도서관,36.0704002,129.20648
147143,기성작은도서관,36.7983267,129.4517485
141239,기흥도서관,37.2862231,127.1141009
145048,길보작은도서관,35.7997455,126.9004444
111515,김근태기념도서관,37.6879391,127.0336271
111502,김영삼도서관,37.5053584,126.949863
145077,김제교육문화회관,35.8067653,126.89217
145022,김제교육문화회관 금산분관,35.7173185,126.9946612
145041,김제금구도서관,35.7751438,127.0125269
145033,김제만경도서관,35.8492989,126.8169325
145026,김제시립도서관,35.7990764,126.8925556
148085,김해글로벗도서관,35.234074,128.881242
148180,김해기적의도서관,35.175871,128.810384
148309,김해율하도서관,35.1718789,128.8138273
148071,김해청소년문화의집,35.242247,128.87837
111516,까망돌도서관,37.505058,126.9607317
131028,꽃바위작은도서관,35.4870523,129.4113238
141215,꿈꾸는새싹작은도서관,37.52592,126.79781
131043,꿈꾸는작은도서관,35.6297775,129.338959
111469,꿈나래어린이영어도서관,37.5551863,126.9056598
727075,꿈날자문고 도서관,35.8702298,128.7259751
111100,꿈마을도서관,37.4871738,126.8902592
111104,꿈을이루는작은도서관,37.5470652,126.9521435
148038,꿈이랑도서관,34.8028677,128.393474
111280,꿈이있는작은도서관,37.5860669,126.9493506
127015,꿈틀 작은도서관,35.8479555,128.5723398
111218,낙성대공원도서관,37.4711007,126.95999
111179,남가좌새롬어린이도서관,37.5782918,126.9240346
128112,남동논현도서관,37.402323,126.7263206
131082,남목도서관,35.5455715,129.4277546
131016,남목작은도서관,35.5424852,129.4255357
141599,남사도서관,37.1523515,127.1726883
127016,남산4동 작은도서관,35.8582424,128.5805671
111180,남산타운 어린이도서관,37.5495114,127.011900
141137,남양주시 별내도서관,37.7081965,127.1177053
141568,남양주시 별빛도서관,37.6509135,127.1204532
141176,남양주시 오남도서관,37.6980757,127.1976087
141146,남양주시 와부도서관,37.5856432,127.2174767
141625,남양주시 이석영뉴미디어도서관,37.658042,127.2952154
141035,남양주시 정약용도서관,37.5859178,127.1707352
141091,남양주시 진건도서관,37.6550996,127.1774145
141521,남양주시 진접도서관,37.7306138,127.193936
141536,남양주시 진접푸른숲도서관,37.7153353,127.1926723
141401,남양주시 퇴계원도서관,37.6490687,127.1455537
141175,남양주시 평내도서관,37.6417066,127.2388929
141585,남양주시 호평도서관,37.6675666,127.2481052
141071,남양주시 화도도서관,37.6500989,127.3058023
711399,남영동 작은도서관,37.545666,126.9730745
145004,남원교육문화회관,35.4101177,127.3819549
145011,남원교육문화회관 운봉분관,35.4409827,127.5320598
145050,남원시립도서관,35.4076967,127.380214
145149,남원시어린이청소년도서관,35.4198906,127.3997991
741464,남한산성작은도서관,37.4773703,127.1872933
148055,남해화전도서관,34.8388957,127.8907146
111112,내손책고운도서관,37.37826,126.97563
148087,내외작은도서관,35.237567,128.857848
741511,내유작은도서관,37.7281026,126.8470859
727055,노원동 작은도서관,35.8909297,128.5663818
111047,노원어린이도서관,37.6580084,127.076284
111058,노원중앙도서관,37.6610613,127.0649973
727098,노원행복 작은도서관,35.8969428,128.5757695
130012,노은도서관,36.381557,127.3206247
711152,녹번만화도서관,37.601393,126.934879
711468,논골작은도서관,37.591147,126.9337221
727010,논공읍 작은도서관,35.730443,128.451975
144022,논산강경도서관,36.1591204,127.0184433
144031,논산연무도서관,36.1264842,127.0972574
144178,논산열린도서관,36.1960813,127.108748
111071,논현문화마루도서관(분관),37.517466,127.040487
141121,누리봄작은도서관,37.6248158,126.7145551
141083,느티나무도서관,37.3340177,127.096092
727073,늘푸른 도서관,35.8935022,128.6451719
111105,늘푸른소나무작은도서관,37.542236,126.955448
711077,늘푸른열린작은도서관,37.5742842,126.9101562
141189,다문화작은도서관,37.332383,126.790301
727012,다사읍 서재 작은도서관,35.8719858,128.49424
727116,다사읍 작은도서관,35.8649215,128.4571628
147167,다산도서관,35.8219087,128.4272761
111513,다산성곽도서관,37.5516036,127.0041767
131037,다울림작은도서관,35.6374664,129.3300097
711325,다울작은도서관,37.4788487,126.973231
150011,다정동도서관,36.4945176,127.250339
143002,단양교육도서관,36.9796323,128.356686
143094,단양군립다누리도서관,36.985817,128.3707666
143019,단양군립매포도서관,37.0324361,128.2972475
111302,달빛마루도서관,37.604481,127.031316
127093,달서구립가족문화도서관,35.8194184,128.5228843
127099,달서구립달서영어도서관,35.8312519,128.5552707
127001,달서구립도원도서관,35.8068385,128.5389385
127012,달서구립본리도서관,35.8405793,128.5418185
127005,달서구립성서도서관,35.8574567,128.5144441
127002,달서구립어린이도서관,35.8224119,128.5470738
327002,달서아트센터 도서관,35.8433779,128.5228444
127081,달성군립도서관,35.8593619,128.462388
127027,달성군청 도서관,35.7745414,128.4313244
127042,달성군청소년센터 작은도서관,35.7238941,128.4550625
142050,담작은도서관,37.871844,127.7316012
711311,답십리1동 아름드리 작은도서관,37.5718898,127.0511352
711085,답십리2동 민들레 작은도서관,37.567353,127.0612752
741011,당곡작은도서관,37.3237954,126.8375919
144034,당진시립송악도서관,36.8903738,126.6939875
144062,당진시립중앙도서관,36.8936538,126.632599
144023,당진시립합덕도서관,36.811625,126.7605331
141266,대곶작은도서관,37.6521773,126.5840833
127087,대구 동구 신천도서관,35.8714979,128.617743
127049,대구 동구 안심도서관,35.864646,128.7025332
127009,대구 북구 구수산도서관,35.9387852,128.5523825
127084,대구 북구 대현도서관,35.8819758,128.6073839
727040,대구 북구 영어 작은도서관,35.881909,128.5835861
127088,대구 북구 태전도서관,35.9284645,128.5456384
127086,대구 서구 비산도서관,35.8685082,128.5733059
127094,대구 서구 비원도서관,35.8861175,128.5693057
127011,대구 서구 어린이도서관,35.8743119,128.5463842
127095,대구 서구 영어도서관,35.8679313,128.5442553
127098,대구 서구 원고개도서관,35.881787,128.5707147
127070,대구 중구 영어도서관,35.8616393,128.6043643
327009,대구 중구청 교양정보실,35.8692838,128.6060779
122001,대구2.28기념학생도서관,35.890772,128.633712
147004,대구광역시교육청삼국유사군위도서관,36.2394613,128.5725268
122009,대구광역시립남부도서관,35.8321174,128.5807653
122011,대구광역시립달성도서관,35.6985758,128.4475554
122010,대구광역시립동부도서관,35.8901654,128.6216004
122002,대구광역시립두류도서관,35.852632,128.5604
122003,대구광역시립북부도서관,35.885182,128.5839
122008,대구광역시립서부도서관,35.8722558,128.5576101
122007,대구광역시립수성도서관,35.8720796,128.6391377
741210,대덕작은도서관,37.588315,126.8755625
148078,대동푸른뜰작은도서관,35.236135,128.993895
148063,대동한마음작은도서관,35.232696,128.865009
111083,대림도서관,37.5082195,126.9040594
127091,대명어울림도서관,35.8417305,128.5735803
111443,대방어린이도서관,37.5029826,126.9251559
727107,대봉2동 작은도서관,35.8589239,128.599461
144032,대산도서관,36.9401513,126.4396125
143024,대소도서관,36.9674899,127.4849331
147102,대송면 큰솔작은도서관,35.97817,129.36225
727025,대신동 작은도서관,35.8648043,128.5768868
141446,대월작은도서관,37.2298164,127.4921844
130007,대전 서구 어린이도서관,36.3050299,127.3684062
125002,대전학생교육문화원,36.3294343,127.4102572
111072,대조꿈나무어린이도서관,37.614157,126.920660
141147,대주작은도서관,37.3757817,127.2614716
711266,대치1동작은도서관,37.4932557,127.056776
150007,대평동도서관,36.4852235,127.251872
148067,대포천작은도서관,35.30723,128.930649
144113,대호지책나래 작은도서관,36.8970354,126.5072679
141216,대화마을작은도서관,37.6725654,126.7351465
148059,덕산작은도서관,35.232338,128.867496
11134704,도곡2동작은도서관,37.483649,127.046369
150001,도담동도서관,36.5153999,127.261748
141182,도란도란작은도서관,37.52704,126.82495
111351,도봉1동 공립 작은도서관,37.6786704,127.0433569
111270,도봉2동 공립 작은도서관,37.6696229,127.0465415
111208,도봉구립무수골도서관,37.6829589,127.0428608
111129,도봉구립학마을도서관,37.662109,127.027821
711319,도봉구청 행복작은도서관,37.6686287,127.0470496
111457,도봉기적의도서관,37.6676581,127.049132
111041,도봉문화정보도서관,37.644055,127.0420503
111189,도봉아이나라도서관,37.6590072,127.0494699
141399,도척작은도서관,37.3046236,127.3311836
127030,도평동 작은도서관,35.91006,128.65001
111448,돌마리도서관,37.5035159,127.1036498
711081,동대문구 장안 벚꽃길 작은도서관,37.576349,127.076761
111445,동대문구답십리도서관,37.573203,127.050405
111065,동대문구정보화도서관,37.5900642,127.047331
711427,동대문책마당도서관,37.5742015,127.0398327
141089,동두천꿈나무정보도서관,37.8921183,127.0513705
141022,동두천시립도서관,37.9068364,127.0474073
744153,동문작은도서관,36.7806793,126.4599803
141160,동백도서관,37.2740661,127.1581171
127056,동인느티나무 도서관,35.8713258,128.607224
111148,동작샘터도서관,37.4883609,126.9775741
111102,동작영어마루도서관,37.5091646,126.9434213
727067,동촌역사 작은도서관,35.8901575,128.649822
142034,동해시립발한도서관,37.5482038,129.1059792
142037,동해시립북삼도서관,37.4926885,129.1044104
147072,두호동 두무치작은도서관,36.0574535,129.374743
147146,두호동 책이랑바다랑작은도서관,36.06095,129.38005
748134,둔덕청마꽃들작은도서관,34.8365111,128.5047773
130006,둔산도서관,36.3600736,127.3931671
111454,둘리도서관,37.6538444,127.0227892
142057,등대작은도서관,37.5586983,129.114202
148097,떡갈나무숲작은도서관,35.168306,128.817546
148080,뜨란채작은도서관,35.233109,128.860607
148094,리첼작은도서관,35.176391,128.804088
141640,마산도서관,37.6342473,126.7370613
741224,마상공원작은도서관,37.6607627,126.8328915
128107,마전도서관,37.5909462,126.6512451
111086,마포서강도서관,37.5476833,126.9320286
111514,마포소금나루도서관,37.5495666,126.9460754
111346,마포어린이영어도서관,37.5414215,126.9498448
111467,마포중앙도서관,37.5638765,126.907996
111462,마포푸르메어린이도서관,37.5697271,126.9029931
141318,매봉작은도서관,36.996053,127.1032486
147144,매화작은도서관,36.9131007,129.3799261
143138,맹동혁신도서관,36.913024,127.544901
741449,모가작은도서관,37.1715184,127.4821767
741461,모당공원작은도서관,37.6778914,126.7814611
141389,모현도서관,37.3356296,127.2496605
111242,목마교육도서관,37.5281527,126.8757457
146009,목포시립도서관,34.8035055,126.4029774
146071,목포어린이도서관,34.8148008,126.4256048
146173,목포영어도서관,34.8148008,126.4256048
741044,무등실작은도서관,38.058449,127.0127464
142051,무릉작은도서관,37.4882653,129.0682535
145037,무주형설지공군립도서관,36.0020347,127.6625918
143064,무지개도서관,36.3204616,127.4600999
741203,무지개도서관,37.1298897,127.0822459
741071,무지개작은도서관,37.4846299,126.792729
111111,문래도서관,37.5167598,126.8911719
111279,문화촌작은도서관,37.5937421,126.9496787
148179,물구나무작은도서관,35.41634,129.1734411
111480,미감도서관,37.5389361,126.865468
111383,미아문화정보도서관,37.6269767,127.026935
143010,미원교육도서관,36.6372156,127.660374
123001,미추홀도서관,37.4469986,126.7248424
141185,민들레홀씨작은도서관,37.50819,126.75087
148008,밀양시립도서관,35.4867664,128.7548041
148300,밀양시립영어도서관,35.4867664,128.7548041
150014,반곡동도서관,36.4987202,127.310580
127031,반야월 작은도서관,35.8723533,128.724836
111136,반포1동 작은도서관,37.505094,127.013378
111249,반포2동 작은도서관,37.5045966,126.994483
111247,반포3동작은도서관,37.5119319,127.005989
111243,반포4동 작은도서관,37.4974793,127.000311
111138,반포본동 작은도서관,37.5004844,126.986094
111163,방배1동 작은도서관,37.4834079,126.994533
111142,방배2동 책사랑방,37.4797439,126.98551
111146,방배4동 작은도서관,37.4889423,126.992251
111236,방배도서관,37.4803209,126.999037
111141,방배본동 작은도서관,37.4941548,126.988822
711359,방아다리문학도서관,37.5385259,126.8271645
727068,방촌동 작은도서관,35.8813411,128.664457
727121,방촌어린이 작은도서관,35.8802839,128.6638025
111262,방학1동 공립 작은도서관,37.6641869,127.0406367
111271,방학2동 공립 작은도서관,37.668177,127.0350425
111357,방학3동 공립 작은도서관,37.659887,127.023815
711323,방학동육아종합지원센터,37.6632313,127.0303315
111490,배봉산 숲속도서관,37.5794335,127.0658492
141487,백사작은도서관,37.3392586,127.4913661
711466,별밭 작은도서관,37.5311243,127.0062695
141390,보라도서관,37.2483772,127.1090488
150005,보람동도서관,36.4786910,127.291308
143003,보은교육도서관,36.484076,127.7160615
111374,복사골작은도서관,37.5414215,126.9498448
141186,복사꽃필무렵작은도서관,37.480664,126.780105
141112,부곡글고운도서관,37.3184983,126.956818
126156,부산광역시 강서기적의도서관,35.0872758,128.9009941
121020,부산광역시 강서도서관,35.1804359,128.9571993
126159,부산광역시 고촌어울림도서관,35.2389142,129.1723178
126165,부산광역시 교리도서관,35.2567089,129.2158008
126152,부산광역시 금곡도서관,35.2631352,129.0176578
126163,부산광역시 금샘도서관,35.2391546,129.0939285
121018,부산광역시 금정도서관,35.272458,129.0961566
121026,부산광역시 기장도서관,35.2497515,129.2172571
126032,부산광역시 기장디지털도서관,35.2435223,129.2229656
121019,부산광역시 남구도서관,35.1376994,129.09456
126160,부산광역시 내리새라도서관,35.2373835,129.2154171
126023,부산광역시 다대도서관,35.0504598,128.96466
126151,부산광역시 대라다목적도서관,35.2409871,129.2104864
121021,부산광역시 동구도서관,35.1379169,129.0514958
126158,부산광역시 동구어린이영어도서관,35.1345788,129.042125
126146,부산광역시 동래읍성도서관,35.207052,129.094842
121023,부산광역시 만덕도서관,35.2067391,129.036694
121091,부산광역시 망미도서관,35.1734169,129.1049445
121022,부산광역시 반여도서관,35.2020277,129.1338241
126147,부산광역시 부산진구어린이청소년도서관,35.1690132,129.0396629
126155,부산광역시 분포도서관,35.1234937,129.1137445
121025,부산광역시 사상도서관,35.1781217,128.989771
121024,부산광역시 수영구도서관,35.1444008,129.105256
126162,부산광역시 수영구어린이도서관,35.1596433,129.1053337
126153,부산광역시 안락누리도서관,35.1970401,129.1077755
126143,부산광역시 연제도서관,35.1714281,129.0828652
121014,부산광역시 영도도서관,35.0755684,129.066539
126015,부산광역시 영도도서관 남항분관,35.0885443,129.039103
126008,부산광역시 재송어린이도서관,35.1896121,129.1185191
126144,부산광역시 정관도서관,35.3279169,129.1817747
126134,부산광역시 정관어린이도서관,35.322819,129.177707
126161,부산광역시 지사도서관,35.1507897,128.833334
126154,부산광역시 해운대인문학도서관,35.2005415,129.1236973
126025,부산광역시 화명도서관,35.232194,129.0094016
121002,부산광역시립구덕도서관,35.1216714,129.0169264
121003,부산광역시립구포도서관,35.1939846,128.995975
121015,부산광역시립명장도서관,35.2008549,129.1065573
121004,부산광역시립반송도서관,35.2250616,129.1483378
121005,부산광역시립부전도서관,35.1558256,129.0620476
121006,부산광역시립사하도서관,35.103086,128.991053
121007,부산광역시립서동도서관,35.2198649,129.0994296
121008,부산광역시립시민도서관,35.183443,129.050125
121011,부산광역시립연산도서관,35.185874,129.1041912
121012,부산광역시립중앙도서관,35.1101431,129.02716
121010,부산광역시립중앙도서관 수정분관,35.1246075,129.0405662
126024,부산광역시립해운대도서관,35.1779728,129.1688996
121013,부산광역시립해운대도서관 우동분관,35.1688448,129.1558258
126157,부산도서관,35.1728784,128.9853065
126014,부산영어도서관,35.156842,129.0520642
144123,부석작은도서관,36.715289,126.394067
145007,부안교육문화회관,35.7307316,126.7348965
141065,부천시립꿈빛도서관,37.50817,126.773731
141248,부천시립꿈여울도서관,37.5155641,126.805529
141583,부천시립도당도서관,37.5191835,126.7919202
141315,부천시립동화도서관,37.4949031,126.7543519
141056,부천시립북부도서관,37.5205458,126.794658
141321,부천시립상동도서관,37.4900669,126.7446997
141559,부천시립송내도서관,37.4849885,126.771038
141043,부천시립심곡도서관,37.4803981,126.783837
141603,부천시립역곡도서관,37.4886425,126.8026956
141584,부천시립오정도서관,37.528314,126.7960717
141535,부천시립원미도서관,37.4990095,126.798221
141115,부천시립책마루도서관,37.4939282,126.770049
141151,부천시립한울빛도서관,37.4679263,126.796549
741223,부천행정정보도서관 시정담벼락,37.5034813,126.7658019
128040,부평구립갈산도서관,37.517625,126.727425
128057,부평구립부개도서관,37.4910257,126.7394883
128035,부평구립부개어린이도서관,37.4855358,126.737013
128056,부평구립삼산도서관,37.5222385,126.743041
128085,부평구립청천도서관,37.5059306,126.714393
128007,부평기적의도서관,37.503443,126.740173
741094,북내작은도서관,37.3275858,127.6833952
511015,북서울중학교,37.6813005,127.0430239
711074,북아현마을 북카페,37.5594408,126.9570091
147057,북울진도서관,37.0648713,129.4187867
148083,분성IPARK작은도서관,35.266828,128.868101
111299,불광천작은도서관,37.590738,126.914389
727065,불로어울림 작은도서관,35.9096197,128.641853
111485,불암도서관,37.6452276,127.0825682
148064,불암동작은도서관,35.222348,128.926009
141190,사2동 꿈을키우는도서관,37.27974,126.8511
141478,사3동작은도서관,37.29469,126.82009
111439,사당솔밭도서관,37.4840674,126.9673849
141198,사랑나무가족도서관,37.50069,126.78288
741192,사리현작은도서관,37.6978732,126.8458643
142035,사북공공도서관,37.2242124,128.824665
727038,산격1동 작은도서관,35.8980805,128.6012847
141177,산북작은도서관,37.4033349,127.4432674
125001,산성어린이도서관,36.2952803,127.3855744
111465,삼각산어린이도서관,37.6151806,127.0206974
148082,삼계로얄작은도서관,35.269517,128.865363
148065,삼계푸르지오작은도서관,35.271318,128.862157
727083,삼덕마루 작은도서관,35.8646621,128.6090644
711267,삼성도서관,37.514345,127.062646
143134,삼성도서관,37.0197379,127.4979969
741194,삼송작은도서관,37.6531053,126.8938936
144029,삽교공공도서관,36.6921266,126.7432121
111307,상계도서관,37.6784183,127.0518501
147101,상대동 큰섬마을작은도서관,36.0233368,129.364019
741533,상동어울마당작은도서관,37.4888402,126.7627195
741005,상동역칙칙폭폭도서관,37.5058136,126.753162
141391,상리작은도서관,38.1348533,127.0784262
141556,상현도서관,37.2993199,127.0735488
150008,새롬동도서관,36.4813183,127.249891
745074,새마을작은도서관,35.8016882,126.8911784
111290,새싹작은도서관,37.5831264,126.9483956
148069,생각이크는작은도서관,35.310164,128.728697
143129,생거진천혁신도시도서관,36.8990812,127.5273718
111219,서경로꿈마루도서관,37.6114625,127.013862
149022,서귀포기적의도서관,33.2543478,126.5699445
111051,서대문구립이진아기념도서관,37.5743009,126.9559178
727088,서변동 작은도서관,35.9279702,128.5979559
711405,서빙고동 작은도서관,37.5204423,126.9946495
144025,서산시립도서관,36.7883115,126.4492221
111314,서울도서관,37.5663245,126.977752
111003,서울특별시교육청강남도서관,37.5137356,127.046991
111004,서울특별시교육청강동도서관,37.5385252,127.143756
111005,서울특별시교육청강서도서관,37.5478818,126.859926
111006,서울특별시교육청개포도서관,37.4829604,127.063769
111007,서울특별시교육청고덕평생학습관,37.5561464,127.157984
111008,서울특별시교육청고척도서관,37.5053516,126.853254
111009,서울특별시교육청구로도서관,37.4985419,126.891674
111010,서울특별시교육청남산도서관,37.5530786,126.981334
111022,서울특별시교육청노원평생학습관,37.6393958,127.067748
111011,서울특별시교육청도봉도서관,37.652815,127.012963
111012,서울특별시교육청동대문도서관,37.5735535,127.024779
111013,서울특별시교육청동작도서관,37.5059908,126.940166
111014,서울특별시교육청마포평생학습관,37.5543324,126.924196
111031,서울특별시교육청마포평생학습관아현분관,37.5538448,126.957198
111016,서울특별시교육청서대문도서관,37.5834154,126.940849
111017,서울특별시교육청서울시립어린이도서관,37.5763001,126.968237
111030,서울특별시교육청송파도서관,37.4999933,127.134839
111015,서울특별시교육청양천도서관,37.5336544,126.875957
111018,서울특별시교육청영등포평생학습관,37.526074,126.907352
111019,서울특별시교육청용산도서관,37.5519877,126.980123
111020,서울특별시교육청정독도서관,37.5810398,126.982952
111021,서울특별시교육청종로도서관,37.5764744,126.966457
111466,서이도서관,37.4920737,127.024938
141320,서정작은도서관,37.0661624,127.0557558
128050,서창도서관,37.4363211,126.7462122
111224,서초1동 작은도서관,37.4901402,127.019511
111250,서초3동 작은도서관,37.4856424,127.011525
111251,서초4동 작은도서관,37.502619,127.02221
111476,서초구립내곡도서관,37.4330582,127.0889946
111377,서초구립반포도서관,37.502493,127.012451
111493,서초구립양재도서관,37.4733508,127.0329122
111477,서초그림책도서관,37.4904202,127.0049533
111503,서초청소년도서관,37.4924089,127.0279393
111301,석관동미리내도서관,37.613522,127.06546
144056,석문생각나무 작은도서관,37.0188805,126.5267646
148077,석봉마을작은도서관,35.202238,128.813129
141253,석수골작은도서관,37.3465693,126.8039588
141509,선부3동선녀마을작은도서관,37.3425683,126.8130929
111121,선유도서관,37.5332751,126.8929164
741246,설성작은도서관,37.1321024,127.5216842
141142,성남시 구미도서관,37.3454424,127.1077636
741042,성남시 논골도서관,37.4560537,127.1596671
141518,성남시 무지개도서관,37.3395814,127.1208293
141623,성남시 복정도서관,37.5231244,127.0313267
141052,성남시 분당도서관,37.3580965,127.1165676
141601,성남시 서현도서관,37.3807258,127.1290412
141060,성남시 수정도서관,37.4522753,127.1531016
141484,성남시 운중도서관,37.3899728,127.0750756
141628,성남시 위례도서관,37.4752772,127.1417456
141069,성남시 중앙도서관,37.3985507,127.1068146
141053,성남시 중원도서관,37.4302108,127.1401167
141258,성남시 중원어린이도서관,37.4475657,127.1631352
141231,성남시 판교도서관,37.3918506,127.0908622
141548,성남시 판교어린이도서관,37.3897865,127.1098561
141588,성남시 해오름도서관,37.428659,127.153577
130003,성남작은도서관,36.3423154,127.429825
111068,성동구립금호도서관,37.554169,127.02488
111035,성동구립도서관,37.559208,127.03496
111119,성동구립무지개도서관,37.563394,127.03674
111344,성동구립성수도서관,37.545305,127.04703
111499,성동구립숲속도서관,37.5459681,127.0125058
111076,성동구립용답도서관,37.566922,127.05129
111442,성동구립청계도서관,37.567838,127.02552
111106,성메작은도서관,37.5685712,126.9089833
111487,성북길빛도서관,37.6117045,127.0268623
111044,성북정보도서관,37.6048486,127.050425
111258,성산글마루작은도서관,37.5689025,126.9027333
111063,성현동작은도서관,37.4872372,126.9560383
711268,세곡도서관,37.469047,127.106916
711492,세곡마루도서관,37.4607489,127.0961723
741458,세교쌍용예가 시민개방도서관,37.1645681,127.0679533
150012,세종시립도서관,36.5105059,127.240567
144011,세종평생교육학습관,36.6003538,127.2876324
111084,소나무언덕1호작은도서관,37.5272233,127.1177482
111114,소나무언덕2호작은도서관,37.5072203,127.0942233
111173,소나무언덕3호작은도서관,37.4923005,127.1566327
111175,소나무언덕4호작은도서관,37.502185,127.116847
111191,소나무언덕잠실본동도서관,37.502967,127.077418
150010,소담동도서관,36.4841119,127.300233
128049,소래도서관,37.3944155,126.704517
148091,소리작은도서관,35.235203,128.8821
741002,소새울가족작은도서관,37.473298,126.800179
142106,속초시립도서관,38.186751,128.5908462
111517,손기정 문화도서관,37.5556652,126.9645497
111498,손기정 어린이도서관,37.5556652,126.964550
111052,솔샘문화정보도서관,37.6204314,127.0123883
328015,송도국제기구도서관,37.3961117,126.6343272
147109,송도동 솔향작은도서관,36.0389457,129.376003
144057,송산개미 작은도서관,36.9346288,126.6799977
144063,송악샘터 작은도서관,36.9367447,126.7346498
144109,송악해나루 작은도서관,36.9614169,126.7754637
111174,송중문화정보도서관,37.6182711,127.0299121
130013,송촌도서관,36.3601292,127.4401556
141319,송탄작은도서관,37.0332993,127.0995513
111435,송파글마루도서관,37.480889,127.130358
111117,송파어린이도서관,37.5120643,127.0824157
111259,송파어린이영어작은도서관,37.5217861,127.1010378
111472,송파위례도서관,37.4811885,127.1419221
11134713,수서동작은도서관,37.4888635,127.104844
127085,수성구립고산도서관,35.8379738,128.710672
127096,수성구립무학숲도서관,35.8353386,128.6305615
127018,수성구립물망이도서관,35.854754,128.619016
127072,수성구립범어도서관,35.8591904,128.6306
127021,수성구립사월역작은도서관,35.8368604,128.716004
127013,수성구립용학도서관,35.8211417,128.646088
127017,수성구립책숲길도서관,35.844682,128.612282
127019,수성구립파동도서관,35.8104135,128.618237
141595,수원시립광교푸른숲도서관,37.2753925,127.0674623
141551,수원시립광교홍재도서관,37.3030711,127.047418
141537,수원시립대추골도서관,37.3066694,127.008064
141612,수원시립망포글빛도서관,37.2406408,127.0438075
141596,수원시립매여울도서관,37.2596306,127.042358
141138,수원시립반달어린이도서관,37.2505935,127.0773347
141550,수원시립버드내도서관,37.2569221,127.01497
141092,수원시립북수원지식정보도서관,37.2976867,126.9883
141093,수원시립서수원지식정보도서관,37.2732139,126.97201
141025,수원시립선경도서관,37.2839131,127.010475
141061,수원시립영통도서관,37.2571838,127.072096
141557,수원시립일월도서관,37.2868358,126.9780895
141024,수원시립중앙도서관,37.2735905,127.012107
141549,수원시립창룡도서관,37.2908387,127.027625
141301,수원시립태장마루도서관,37.2388399,127.051017
141542,수원시립한림도서관,37.2375562,127.024833
141064,수원시립한아름도서관,37.2741231,127.0348936
141552,수원시립호매실도서관,37.2663884,126.957947
141572,수원시립화서다산도서관,37.2847561,126.9966581
141107,수원시립희망샘도서관,37.2477413,126.9728911
111182,수유문화정보도서관,37.6300001,127.017532
141079,수지도서관,37.3201871,127.0945017
144058,순성반딧불이 작은도서관,36.8618134,126.6804163
748077,순지작은도서관,35.492362,129.084722
145140,순창군립도서관,35.3735182,127.1406453
146118,순천기적의도서관,34.9471695,127.527657
146014,순천시립그림책도서관,34.9579091,127.4862543
146120,순천시립삼산도서관,34.9666906,127.4865762
146175,순천시립신대도서관,34.935271,127.563376
146034,순천시립연향도서관,34.9471023,127.5185748
146068,순천시립조례호수도서관,34.9640551,127.5245258
741006,숲속작은도서관,37.4997953,126.765349
641015,시온고등학교 열린작은도서관,37.4715246,126.805999
741151,시청작은도서관,37.2717955,127.4347107
148057,시호미래작은도서관,35.338277,128.785936
141245,시흥시 군자도서관,37.3456428,126.7852369
141260,시흥시 능곡도서관,37.371378,126.8131315
141045,시흥시 대야도서관,37.4454052,126.79664
141396,시흥시 매화도서관,37.4175609,126.8155221
141609,시흥시 목감도서관,37.3798877,126.8031025
141632,시흥시 배곧도서관,37.3762129,126.7290632
141316,시흥시 소래빛도서관,37.4438392,126.7925775
141314,시흥시 신천도서관,37.438379,126.7850242
141199,시흥시 월곶도서관,37.3887435,126.7362223
141562,시흥시 장곡도서관,37.3775319,126.7829625
141280,시흥시 정왕어린이도서관,37.3452203,126.7479977
141066,시흥시 중앙도서관,37.348122,126.735583
147070,신광면 비학산작은도서관,36.1298718,129.261625
141191,신길샛별도서관,37.3377496,126.7775478
111511,신당누리도서관,37.5633821,127.012303
111306,신도림어린이영어작은도서관,37.4897388,126.8583705
741360,신둔작은도서관,37.3061619,127.4040543
11134711,신사동작은도서관,37.5240101,127.022781
111137,신사어린이도서관,37.598276,126.912158
741168,신서작은도서관,38.1828197,127.1070521
146032,신안군립도서관,34.8626257,126.3177994
727061,신암2동 작은도서관,35.87994,128.61265
727062,신암3동 작은도서관,35.881058,128.618882
727071,신암5동 작은도서관,35.8897559,128.6330629
111081,신월음악도서관,37.5246694,126.8400781
741298,신중동역칙칙폭폭도서관,37.503052,126.77596
127029,신천3동 작은도서관,35.8755145,128.623516
125011,신탄진도서관,36.4464999,127.4371944
744005,신평책다솜 작은도서관,36.886475,126.7624815
726305,신호작은도서관 아이들꿈자람터,35.0882599,128.8724335
741459,신흥어울마당작은도서관,37.5198721,126.7932853
711316,쌍문1동 공립 작은도서관,37.6479992,127.0260364
111282,쌍문2동 공립 작은도서관,37.6580211,127.0387508
111274,쌍문3동 공립 작은도서관,37.6489437,127.0279086
711317,쌍문4동 공립 작은도서관,37.6564188,127.0283688
111496,쌍문채움도서관,37.6492052,127.0230667
150002,아름동도서관,36.5123404,127.246891
741004,아름드리작은도서관,37.51968,126.76656
131031,아름드리작은도서관,35.6453706,129.3544357
111171,아름드리작은도서관,37.5602711,126.9023008
111048,아리랑도서관,37.5998987,127.013975
111468,아리랑어린이도서관,37.5991068,127.0137948
144045,아산시 꿈샘어린이청소년도서관,36.794453,127.0043048
144024,아산시 둔포도서관,36.9267409,127.0407865
144037,아산시 배방도서관,36.7739116,127.0577941
144174,아산시 중앙도서관,36.7712088,127.0092912
144172,아산시 탕정온샘도서관,36.7902418,127.0540115
726304,아이꿈 작은도서관,35.0998348,128.928286
111273,아이누리작은도서관,37.5692972,126.9308224
111523,아차산숲속도서관,37.5518578,127.1012321
147163,안동시립어린이도서관,36.548773,128.729933
147030,안동시립웅부도서관,36.5661267,128.7351927
147170,안동시립중앙도서관,36.5669166,128.6993119
125005,안산도서관,36.368296,127.4271497
141051,안산시 감골도서관,37.2926167,126.8544536
141032,안산시 관산도서관,37.3321319,126.7995588
141133,안산시 단원어린이도서관,37.3311927,126.8161013
141563,안산시 대부도서관,37.2405386,126.5829946
141567,안산시 미디어도서관,37.307187,126.8312518
141188,안산시 반월도서관,37.304155,126.900016
141482,안산시 본오도서관,37.2939804,126.8723016
141252,안산시 부곡도서관,37.3326644,126.8608588
141134,안산시 상록어린이도서관,37.3073887,126.8633133
141554,안산시 선부도서관,37.3411073,126.8061847
141050,안산시 성포도서관,37.3251788,126.8503406
141481,안산시 수암도서관,37.36182,126.87322
141508,안산시 원고잔도서관,37.3245985,126.8247479
141327,안산시 일동도서관,37.3154155,126.8717236
141099,안산시 중앙도서관,37.3044036,126.8212469
141406,안산시평생학습관작은도서관,37.29905,126.84641
14116801,안성대림동산작은도서관,37.0139555,127.2031019
141291,안성부영작은도서관,37.0081396,127.183659
141296,안성삼죽작은도서관,37.0725486,127.374635
141292,안성송정작은도서관,37.00451,127.20054
141290,안성시 공도도서관,37.0033824,127.172642
141289,안성시 보개도서관,37.0150259,127.322491
141026,안성시 아양도서관,37.0162227,127.2681605
141294,안성시 일죽도서관,37.0942077,127.475151
141168,안성시 중앙도서관,37.0152864,127.2686
141547,안성시 진사도서관,36.9941373,127.144458
141295,안성죽산작은도서관,37.0770255,127.423944
141213,안성태산작은도서관,37.0009401,127.153541
141293,안성풍림작은도서관,36.9989,127.159
141571,안양시립관양도서관,37.4110138,126.9703115
141027,안양시립만안도서관,37.3861604,126.9261235
141095,안양시립박달도서관,37.4023867,126.9035499
141538,안양시립벌말도서관,37.3938077,126.9764148
141263,안양시립비산도서관,37.3990721,126.9376412
141573,안양시립삼덕도서관,37.396052,126.9151635
141077,안양시립석수도서관,37.4115139,126.9031152
141132,안양시립어린이도서관,37.3849431,126.9545823
141036,안양시립평촌도서관,37.395758,126.9576926
141047,안양시립호계도서관,37.3830706,126.9505071
111281,알음알음작은도서관,37.5628964,126.962342
111227,압구정동문고,37.530642,127.030713
141211,약대신나는가족도서관,37.51333,126.77127
111107,약수도서관,37.4978365,126.9474396
131076,약숫골도서관,35.5704567,129.3372122
141404,양곡도서관,37.6616215,126.6314142
148304,양산시립 상북도서관,35.4157099,129.059162
148314,양산시립 서창도서관,35.4106438,129.1722774
148301,양산시립 영어도서관,35.4144861,129.164018
148041,양산시립 웅상도서관,35.3894429,129.15527
148318,양산시립 윤현진도서관,35.3477893,129.0439266
148122,양산시립 중앙도서관,35.3252568,128.996509
111246,양재1동 작은도서관,37.4716481,127.026721
111244,양재2동 작은도서관,37.4762901,127.043128
131057,양정작은도서관(달팽이),35.5448314,129.3848384
141323,양주시립고읍도서관,37.7925771,127.0843348
141581,양주시립광적도서관,37.8213656,126.986781
141098,양주시립꿈나무도서관,37.7923901,126.9871678
141154,양주시립남면도서관,37.8980773,126.9758804
141545,양주시립덕계도서관,37.8224492,127.0478443
141037,양주시립덕정도서관,37.842918,127.0631264
141605,양주시립옥정호수도서관,37.8203009,127.0864731
141558,양주희망도서관,37.7979256,127.103811
141217,양지해밀도서관,37.2374844,127.2858167
111504,양천중앙도서관,37.513525,126.833437
141282,양평군 양동도서관,37.3454424,127.1077636
141261,양평군 양서친환경도서관,37.4475657,127.1631352
141109,양평군 어린이도서관,37.428659,127.153577
141128,양평군 용문도서관,37.3580965,127.1165676
141011,양평군 중앙도서관,37.3985507,127.1068146
141317,양평군 지평도서관,37.3807258,127.1290412
147069,양학동 부학작은도서관,36.02547,129.35056
111220,어울림도서관,37.5617028,127.018910
146036,여수시립돌산도서관,34.7160081,127.7499315
146038,여수시립소라도서관,34.7886128,127.6334897
146026,여수시립쌍봉도서관,34.7630441,127.658722
146045,여수시립율촌도서관,34.8837459,127.5786328
146179,여수시립이순신도서관,35.8102151,127.1267053
146015,여수시립현암도서관,34.7571412,127.7314764
146052,여수시립환경도서관,34.7542288,127.7010727
111444,여의샛강도서관,37.522317,126.9201153
141600,여주시립대신도서관,37.3732427,127.5859505
141054,여주시립세종도서관,37.2971351,127.6249408
141331,여주시립여주도서관,37.2998502,127.6511676
141586,여주시립점동도서관,37.2058741,127.662854
711307,역마루작은도서관,37.604714,126.915099
711269,역삼2동작은도서관,37.4958791,127.046416
147100,연일읍 미르작은도서관,36.00766,129.32019
141013,연천군중앙도서관,38.0323136,127.0708708
141117,연천도서관,38.0981063,127.0767593
143004,영동교육도서관,36.1713844,127.7722622
111461,영어특성화도서관,37.5159478,126.8638501
128098,영종하늘도서관,37.4944932,126.5640039
147034,영천시립도서관,35.9754243,128.932787
144136,예산군립도서관,36.7072033,126.8443314
711067,오렌지나무 작은도서관,37.5389156,126.9575712
141540,오산시 꿈두레도서관,37.1817029,127.045268
141610,오산시 소리울도서관,37.1339152,127.0732373
141174,오산시 양산도서관,37.1943263,127.032212
141158,오산시 중앙도서관,37.15388,127.076939
141014,오산시 청학도서관,37.1550825,127.063967
141264,오산시 초평도서관,37.1427084,127.046599
141127,오산시 햇살마루도서관,37.1384499,127.071734
141111,오전빛고운도서관,37.3535029,126.971653
147112,오천읍 그루터기작은도서관,35.96289,129.4115
147085,오천읍 해와달작은도서관,35.96402,129.4016
141116,오포작은도서관,37.3630587,127.1551653
146041,옥과공공도서관,35.2744583,127.1355749
143005,옥천교육도서관,36.300914,127.5724097
143078,옥천군민도서관,36.3004381,127.5746837
727026,옥포읍 작은도서관,35.7897667,128.463909
148211,옥포작은도서관,34.8938695,128.6961156
111128,온누리도서관,37.4969154,126.8858064
147160,온정작은도서관,36.7239385,129.3453391
741046,와동별빛누리작은도서관,37.34059,126.82726
741139,와동책읽는방작은도서관,37.3428564,126.8228153
145038,완주군립고산도서관,35.9764763,127.20535
145134,완주군립둔산영어도서관,35.9609204,127.125344
145025,완주군립삼례도서관,35.9204022,127.093254
145118,완주군립중앙도서관,35.9048726,127.160787
145148,완주군립콩쥐팥쥐도서관,35.8206231,127.0225475
748165,외포바다마을작은도서관,34.9429229,128.7155215
711140,용강동작은도서관,37.5421805,126.9416403
311744,용꿈꾸는작은도서관,37.4781549,126.9514847
111304,용두어린이영어도서관,37.5761063,127.030293
127006,용산1동 작은도서관,35.8566419,128.5312386
111473,용산꿈나무도서관,37.5385513,126.9654268
711397,용암어린이영어도서관,37.540978,126.984657
125006,용운도서관,36.3257533,127.4636938
141038,용인중앙도서관,37.2334148,127.1902732
147154,용흥동 솔개재작은도서관,36.0431083,129.352425
148076,우리작은도서관,35.191327,128.808435
744183,운산작은도서관,36.8109084,126.5832526
741084,운양작은도서관,37.6493088,126.6849894
131017,울산 남구 도산도서관,35.5307144,129.3315455
131072,울산 남구 신복도서관,35.5513724,129.2553236
131074,울산 남구 옥현어린이도서관,35.5391622,129.264824
131015,울산 남구 월봉도서관,35.5422963,129.3198911
131002,울산 북구 기적의도서관,35.6622063,129.3364797
131001,울산 북구 농소1동도서관,35.6291873,129.3545038
131003,울산 북구 농소3동도서관,35.6330929,129.3355864
131079,울산 북구 매곡도서관,35.6441992,129.3504917
131056,울산 북구 명촌어린이도서관,35.5550074,129.3553039
131019,울산 북구 염포양정도서관,35.5318826,129.3939096
131005,울산 북구 중앙도서관,35.5842174,129.3679182
148014,울산남부도서관,35.535816,129.2951888
131080,울산도서관,35.533571,129.3360171
148015,울산동부도서관,35.5282078,129.4250825
148018,울주도서관,35.5588501,129.1373782
147107,울진남부도서관,36.6878112,129.4439574
147142,울진작은도서관,36.9945179,129.4029253
144059,원당꿈초롱 작은도서관,36.9027198,126.6432917
748149,원동작은도서관,35.3702553,128.920549
130026,원신흥도서관,36.3440483,127.3359618
142118,원주시립미리내도서관,37.3536617,127.9431874
142015,원주시립중앙도서관,37.3263503,127.9533323
142058,원주시립태장도서관,37.3605853,127.9537209
147133,원평으뜸작은도서관,36.1282611,128.3400386
711400,원효로제2동 작은도서관,37.5343171,126.9515072
111085,월계도서관,37.6286048,127.0561075
111484,월계어린이도서관,37.6216809,127.0531766
111464,월곡꿈그림도서관,37.6045234,127.0411906
148061,월산주공작은도서관,35.203889,128.802051
130028,월평도서관,36.3580403,127.3777371
727023,유가읍 작은도서관,35.6938869,128.459815
125007,유성도서관,36.3784791,127.375891
12500701,유성도서관 엑스포분관,36.3999653,127.4079098
748097,유토피아작은도서관,35.2433707,128.9034897
141451,율면작은도서관,37.0950889,127.5470953
727076,율하5주민 작은도서관,35.864188,128.692047
148234,율하e편한작은도서관,35.171072,128.82092
111160,은천동작은도서관,37.4852797,126.9423964
111042,은평구립도서관,37.619200,126.928243
711310,은평구행정자료실,37.6024515,126.9293311
711302,은평어린이영어도서관,37.608080,126.921084
111132,은평작은도서관,37.6024515,126.9293311
143006,음성교육도서관,36.939997,127.6928173
711304,응암1동문화의집문고,37.600854,126.926759
147053,의성군립도서관,36.3839638,128.4401794
141237,의왕시글로벌도서관,37.3576815,126.970498
141039,의왕시내손도서관,37.387659,126.982053
141120,의왕시중앙도서관,37.3422301,126.969448
141633,의왕시포일어울림도서관,37.3965596,126.9827991
141597,의정부가재울도서관,37.7483818,127.0441896
141131,의정부과학도서관,37.744874,127.0690533
141627,의정부미술도서관,37.7533135,127.1073975
141119,의정부영어도서관,37.7265004,127.0426093
141642,의정부음악도서관,37.7297293,127.0552995
141075,의정부정보도서관,37.7364786,127.0339219
127066,이곡2동 작은도서관,35.8558089,128.5008392
142056,이도작은도서관,37.4800496,129.1088441
141582,이동꿈틀도서관,37.1390828,127.1997473
711086,이문1동 꿈꾸는 작은도서관,37.5976622,127.0654786
711410,이문2동 작은도서관,37.6033142,127.0651101
711002,이문어린이도서관,37.5988988,127.053846
111053,이문체육문화센터 어린이도서관,37.6022638,127.068711
148081,이안나누리작은도서관,35.27375,128.867792
141029,이천시립도서관,37.2868263,127.4368133
141594,이천시립마장도서관,37.2503901,127.3557511
141166,이천시립어린이도서관,37.278046,127.441157
141068,이천시립청미도서관,37.1169278,127.6152627
141539,이천시립효양도서관,37.2615995,127.4779588
127090,이천어울림도서관,35.8523156,128.598696
711402,이촌2동 작은도서관,37.5262428,126.9546466
711209,이팝꽃향기작은도서관,37.5836923,126.9109342
145034,익산교육문화회관,35.9389516,126.9606218
145013,익산교육문화회관 함열분관,36.0785875,126.9634646
145153,익산시립금마도서관,35.994183,127.054825
145024,익산시립마동도서관,35.9404093,126.9690213
145095,익산시립모현도서관,35.949644,126.9360088
145116,익산시립부송도서관,35.9639592,126.9941517
145042,익산시립영등도서관,35.9626723,126.9777362
145154,익산시립유천도서관,35.9282186,126.9736443
145144,익산시립황등도서관,36.0044937,126.9434981
144070,인지작은도서관,36.75337,126.4247
128001,인천 서구 검단도서관,37.6004027,126.666328
128102,인천 서구 검암도서관,37.5660754,126.6831116
128008,인천 서구 석남도서관,37.5117615,126.6782612
128055,인천 서구 신석도서관,37.5116268,126.6682828
128024,인천 서구 심곡도서관,37.5424302,126.6731937
128061,인천광역시 꿈벗도서관,37.4730202,126.625125
128017,인천광역시 수봉도서관,37.4626544,126.6667545
128015,인천광역시 영종도서관,37.4956123,126.4879083
128046,인천광역시 율목도서관,37.4693677,126.6325952
123009,인천광역시교육청계양도서관,37.5460166,126.7301724
123002,인천광역시교육청부평도서관,37.4849955,126.7048383
123003,인천광역시교육청북구도서관,37.5066139,126.7236467
123004,인천광역시교육청서구도서관,37.4943306,126.6796541
123010,인천광역시교육청연수도서관,37.4178811,126.6853117
123005,인천광역시교육청주안도서관,37.4556812,126.6927926
123006,인천광역시교육청중앙도서관,37.4561418,126.7030292
128010,인천광역시교육청평생학습관,37.3981721,126.6721058
123007,인천광역시교육청화도진도서관,37.4818318,126.6283464
148095,일동한신꿈나무작은도서관,35.231751,128.84809
11134717,일원1동작은도서관,37.491839,127.087962
11134712,일원2동문고,37.4922791,127.074474
11134707,일원본동작은도서관,37.4833525,127.086445
130008,자양도서관,36.3355031,127.4485873
111115,자양제4동도서관,37.5340446,127.0640456
111495,자양한강도서관,37.5296093,127.0779724
111364,작은도서관 꿈꾸는책마을,37.5262782,127.0001476
111140,잠원도서관,37.5149648,127.013968
141593,장기도서관,37.6417974,126.6765915
127007,장기동 작은도서관,35.8433981,128.5299636
747006,장량동 꿈마루작은도서관,36.0894166,129.395131
147136,장량동 다솜작은도서관,36.092047,129.382772
747016,장량동 바람숲작은도서관,36.0847418,129.403442
147084,장량동 참사랑작은도서관,36.0825892,129.3775857
147156,장량동 해뜰참작은도서관,36.0749668,129.381851
147137,장량동 햇살작은도서관,36.08476,129.40569
711080,장안 가온누리 작은도서관,37.5810232,127.046915
711251,장안1동 작은도서관,37.566901,127.0695125
711485,장안꿈마루어린이 작은도서관,37.5732149,127.0678793
711433,장안마루 작은도서관,37.5815929,127.0702457
111303,장안어린이도서관,37.571256,127.073198
111492,장위행복누림도서관,37.6162749,127.0459926
148062,장유대우작은도서관,35.176558,128.791376
148042,장유도서관,35.191583,128.79696
711539,장충동 작은도서관,37.5591619,127.0013427
144026,장항공공도서관,36.0147499,126.6924206
141300,장흥작은도서관,37.7137571,126.9693719
711079,전곡마을 작은도서관,37.5792838,127.063177
711250,전농2동 뜨락 작은도서관,37.5780526,127.0599929
146002,전라남도교육청고흥평생교육관,34.6018554,127.2775802
146003,전라남도교육청곡성교육문화회관,35.2821509,127.2897463
146025,전라남도교육청광양도서관,34.9437478,127.6934705
146042,전라남도교육청광양평생교육관,34.9617375,127.7175337
146005,전라남도교육청구례도서관,35.2101649,127.4614034
146007,전라남도교육청나주도서관,35.0294249,126.7165623
146006,전라남도교육청남평도서관,35.0425906,126.8459762
146008,전라남도교육청담양도서관,35.3120442,126.983942
146010,전라남도교육청목포도서관,34.8070064,126.3763424
146011,전라남도교육청무안도서관,34.9881415,126.4685488
146013,전라남도교육청벌교도서관,34.8441295,127.3420751
146012,전라남도교육청보성도서관,34.7684656,127.0784428
146016,전라남도교육청영광도서관,35.2735455,126.5046696
146017,전라남도교육청영암도서관,34.7998538,126.6943839
146018,전라남도교육청장성도서관,35.3045976,126.784688
146019,전라남도교육청장흥도서관,34.6814189,126.9104251
146020,전라남도교육청진도도서관,34.4857948,126.2668355
146059,전라남도교육청학생교육문화회관,34.7804358,127.6439821
146021,전라남도교육청함평도서관,35.0670217,126.5189576
146022,전라남도교육청해남도서관,34.5749867,126.5947131
146023,전라남도교육청화순도서관,35.0622774,126.9819212
146126,전라남도립도서관,34.8049913,126.461486
145001,전라북도교육청고창도서관,35.4341415,126.7039748
145006,전라북도교육청무주도서관,36.0106559,127.6604406
145008,전라북도교육청순창도서관,35.3766053,127.1440507
145010,전라북도교육청완주도서관,35.9381762,127.1642661
145014,전라북도교육청임실도서관,35.6138819,127.2787824
145015,전라북도교육청장수도서관,35.6510324,127.5214147
145021,전라북도교육청진안도서관,35.7893374,127.422116
145075,전북도청도서관,35.8207082,127.101491
145016,전주교육문화회관,35.8291331,127.1378158
145142,전주시립건지도서관,35.8541298,127.151551
145018,전주시립금암도서관,35.8364087,127.139964
145150,전주시립도서관 꽃심,35.8102151,127.1267053
145035,전주시립삼천도서관,35.7989436,127.121693
145051,전주시립서신도서관,35.8310167,127.11525
145039,전주시립송천도서관,35.8693071,127.128237
145131,전주시립아중도서관,35.8262181,127.162659
145017,전주시립완산도서관,35.8094167,127.147738
145030,전주시립인후도서관,35.8395057,127.1634
145139,전주시립쪽구름도서관,35.8715131,127.07571
145097,전주시립평화도서관,35.7914868,127.134854
145145,전주시립효자도서관,35.8109943,127.1005948
131021,전하작은도서관,35.5093691,129.4293383
111380,정릉도서관,37.6047207,127.010585
145019,정읍학생복지회관,35.5712741,126.8518922
149013,제주 동부도서관,33.261775,126.608288
149002,제주 삼매봉도서관,33.24426,126.5521
149017,제주 서부도서관,33.250821,126.432371
149012,제주 성산일출도서관,33.4556963,126.9121171
149015,제주 안덕산방도서관,33.2550768,126.3306645
149011,제주 애월도서관,33.4633179,126.3313125
149006,제주 우당도서관,33.5154244,126.5487423
149014,제주 조천읍도서관,33.5377434,126.6676946
149008,제주 중앙도서관,33.2513754,126.5076048
149005,제주 탐라도서관,33.479268,126.477125
149018,제주 표선도서관,33.3239223,126.8385708
149016,제주 한경도서관,33.3500434,126.1845632
149019,제주기적의도서관,33.5017041,126.5354668
143025,제천기적의도서관,37.155205,128.2200234
143015,제천시립도서관,37.145074,128.220288
143007,제천학생회관,37.1459009,128.2022633
148056,젤미작은도서관,35.196245,128.797396
111192,조원도서관,37.4826794,126.9078028
111188,종암동새날도서관,37.5990302,127.035098
150003,종촌동도서관,36.5046267,127.246866
148098,주촌디딤돌작은도서관,35.238248,128.830825
147124,죽도동 맑은물작은도서관,36.03302,129.36473
147104,죽도동 청암작은도서관,36.03312,129.36951
145126,죽산작은도서관,35.7699752,126.814062
147155,죽장면 참느리작은도서관,36.241684,129.215431
141149,죽전도서관,37.3301254,127.118765
127008,죽전동 작은도서관,35.855797,128.5398201
111116,중곡문화체육센터도서관,37.5677352,127.0825706
111060,중랑구립면목정보도서관,37.5871918,127.0876595
111488,중랑구립상봉도서관,37.5930916,127.0809054
111478,중랑구립양원숲속도서관,37.6066977,127.1101168
111034,중랑구립정보도서관,37.6151557,127.0868682
111311,중랑숲어린이도서관,37.6024771,127.1052616
141057,중봉도서관,37.6256899,126.7067349
143008,중원교육도서관,36.97246,127.7862678
711090,중화어린이도서관,37.595,127.0747885
148235,중흥샘이깊은작은도서관,35.308763,128.732954
143016,증평교육도서관,36.7829406,127.5886432
143122,증평군립도서관,36.7853074,127.5814886
741361,증포송정작은도서관,37.2892999,127.4454311
727066,지저동 작은도서관,35.8933991,128.638275
711320,지혜의등대 작은도서관,37.6540005,127.0386044
148066,진례작은도서관,35.249028,128.750676
741077,진말책향기작은도서관,37.4909759,126.780646
144168,진산도서관,36.1438886,127.3698109
148084,진영한빛도서관,35.304562,128.736912
130010,진잠도서관,36.3031044,127.319778
148086,진주시립도동어린이도서관,35.1861295,128.1248461
148068,진주시립비봉어린이도서관,35.1977308,128.0905381
148040,진주시립서부도서관,35.1896559,128.061617
148047,진주시립어린이전문도서관,35.1740636,128.0653523
148022,진주시립연암도서관,35.1830905,128.1019738
143009,진천교육도서관,36.8557046,127.4392093
143077,진천군립광혜원도서관,36.9928823,127.4387055
143076,진천군립도서관,36.8574203,127.4374947
748095,참새미작은도서관,34.8510652,128.5960669
111272,창1동 공립 작은도서관,37.6483328,127.0437847
111331,창2동 공립 작은도서관,37.6413898,127.0356396
111350,창3동 공립 작은도서관,37.6381103,127.0428666
111348,창4동 공립 작은도서관,37.652300,127.051532
711318,창5동 공립 작은도서관,37.6562098,127.0434809
711324,창동육아종합지원센터,37.6335062,127.0411015
131025,책가방작은도서관,35.631562,129.3366859
148070,책고래작은도서관,35.193875,128.810209
131027,책놀이터작은도서관,35.6299962,129.3422293
131036,책누리작은도서관,35.5509767,129.3833239
131041,책마루작은도서관,35.6317616,129.3269509
131020,책사랑작은도서관,35.6380752,129.3274329
144061,천안시도솔도서관,36.815021,127.114115
144071,천안시두정도서관,36.8344397,127.134763
144036,천안시성거도서관,36.8714745,127.200706
144142,천안시신방도서관,36.7744613,127.130942
144039,천안시쌍용도서관,36.8004226,127.114543
144047,천안시아우내도서관,36.7669174,127.303245
144016,천안시중앙도서관,36.8091134,127.1534079
144175,천안시청수도서관,36.7893915,127.1563273
144177,천안아산상생협력센터도서관,36.8001686,127.1064013
741521,청계숲고운도서관,37.3927263,126.9976692
141214,청계참고운도서관,37.3885035,126.995965
141564,청덕도서관,37.292608,127.1458667
128096,청라국제도서관,37.5351372,126.6607243
128097,청라호수도서관,37.5521188,126.6441068
147123,청림동 찬내작은도서관,35.99286,129.40438
147087,청림동 푸른숲작은도서관,35.9926071,129.410481
141250,청산작은도서관,38.0322863,127.108779
711497,청소년 푸르미르 작은도서관,37.5211362,126.9732353
111437,청수도서관,37.6117293,127.010749
143136,청주가로수도서관,36.6197723,127.4271768
143128,청주강내도서관,36.6283436,127.413699
143131,청주금빛도서관,36.6279017,127.5146713
143023,청주기적의도서관,36.6180108,127.4833992
143106,청주내수도서관,36.7239271,127.5348235
143060,청주상당도서관,36.6427997,127.4912789
143086,청주서원도서관,36.6087159,127.4886413
143022,청주시립도서관(임시청사),36.5955005,127.5062172
143029,청주신율봉어린이도서관,36.631442,127.4468251
143123,청주오송도서관,36.6350215,127.3232938
143063,청주오창도서관,36.7426335,127.4548817
143126,청주오창호수도서관,36.7127511,127.4236715
143020,청주옥산도서관,36.6661019,127.3693273
143027,청주청원도서관,36.666181,127.4749188
143028,청주흥덕도서관,36.6349497,127.4313721
111120,청파도서관,37.5538955,126.9675303
711396,청파어린이영어도서관,37.5454286,126.9684777
147135,청하면 해아작은도서관,36.2014522,129.340444
745011,청하사랑작은도서관,35.9035278,126.8407117
727072,초록우산 도서관,35.8698335,128.709637
144068,추부도서관,36.1909288,127.4700975
142039,춘천시립남산도서관,37.7928106,127.643413
142020,춘천시립도서관,37.8631687,127.7503805
142040,춘천시립동내도서관,37.8360921,127.7625953
142045,춘천시립서면도서관,37.9174902,127.6954023
142041,춘천시립소양도서관,37.8926589,127.7451648
142043,춘천시립신사우도서관,37.9056894,127.7281987
142110,춘천시립청소년도서관,37.8703944,127.7111063
144173,충남도서관,36.6303628,126.6650714
144001,충청남도공주교육지원청 공주도서관,36.4516876,127.1263431
144002,충청남도공주교육지원청 유구도서관,36.548806,126.950039
144004,충청남도교육청 남부평생교육원,36.1965685,127.0861139
144009,충청남도교육청 서부평생교육원,36.770175,126.4645875
144040,충청남도교육청 평생교육원,36.7712376,127.205155
144015,충청남도교육청 학생교육문화원,36.8094135,127.1568306
144003,충청남도금산교육지원청 금산도서관,36.1020211,127.4843123
144005,충청남도당진교육지원청 당진도서관,36.8953463,126.6240333
144006,충청남도보령교육지원청 보령도서관,36.3426797,126.6004841
144007,충청남도보령교육지원청 웅천도서관,36.2322323,126.6058401
144008,충청남도부여교육지원청 부여도서관,36.2838507,126.9158564
144020,충청남도서산교육지원청 해미도서관,36.715799,126.5433098
144010,충청남도서천교육지원청 서천도서관,36.0761039,126.6986633
144013,충청남도아산교육지원청 아산도서관,36.7896256,126.9920146
144012,충청남도예산교육지원청 예산도서관,36.6785315,126.8329581
144021,충청남도천안교육지원청 성환도서관,36.9132001,127.1306784
144017,충청남도청양교육지원청 청양도서관,36.4527618,126.8003983
144018,충청남도태안교육지원청 태안도서관,36.7595928,126.2904382
144019,충청남도홍성교육지원청 홍성도서관,36.5995606,126.6671776
143013,충청북도교육도서관,36.632765,127.477825
143014,충청북도교육문화원,36.6828517,127.4799929
143012,충청북도중원교육문화원,36.9549462,127.931265
147075,칠곡군립도서관,35.9752164,128.3995664
147127,칠곡군립북삼도서관,36.0625978,128.341825
147134,칠곡군립석적도서관,36.0764014,128.415881
148039,칠암도서관,35.244641,128.910439
727054,침산1동 작은도서관,35.8903277,128.5812786
148058,캐슬작은도서관,35.242284,128.884509
141230,탄현작은도서관,37.7009197,126.7651358
142030,태백시립도서관,37.0996919,129.0219603
142112,태백시립산소드림도서관,37.1798638,128.9848913
114157,태안군립중앙도서관,36.7576158,126.3021603
148100,통영시립도서관,34.8618204,128.424713
148044,통영시립욕지도서관,34.6367834,128.263369
148238,통영시립충무도서관,34.8732994,128.420478
141169,통진도서관,37.6939423,126.5920404
141392,퇴촌작은도서관,37.4706233,127.3092664
711076,파랑새작은도서관,37.5732691,126.919663
141544,파주시립가람도서관,37.7305536,126.763913
141156,파주시립교하도서관,37.7234851,126.712431
141397,파주시립금촌3동솔빛도서관,37.7714418,126.778564
141040,파주시립금촌도서관,37.7585597,126.780114
141041,파주시립문산도서관,37.8532474,126.783437
141489,파주시립물푸레도서관,37.7340185,126.720118
141049,파주시립법원도서관,37.8474969,126.886213
141242,파주시립적성도서관,37.9541763,126.917375
141251,파주시립조리도서관,37.747529,126.806657
141082,파주시립중앙도서관,37.7499775,126.7706867
141566,파주시립탄현도서관,37.8024426,126.7161779
141517,파주시립한빛도서관,37.7119174,126.749405
141326,파주시립해솔도서관,37.7266026,126.748162
141299,파주시립행복어린이도서관,37.8567287,126.79098
130004,판암도서관,36.3164497,127.4607732
341200,판타스틱큐브도서관,37.5034813,126.7658019
748063,팔판빛오름작은도서관,35.1794629,128.7966061
148074,팔판작은도서관,35.179286,128.792246
741362,평생학습북카페작은도서관,37.282645,127.4503999
142115,평창군립대관령도서관,37.7091321,128.6860708
142042,평창군립대화도서관,37.5014012,128.4576694
142097,평창군립봉평도서관,37.6161406,128.3793607
142036,평창군립진부도서관,37.6352994,128.5543606
141598,평택시립배다리도서관,37.0104896,127.143078
141031,평택시립비전도서관,36.9958544,127.0937084
141589,평택시립세교도서관,37.0047507,127.0680239
141084,평택시립안중도서관,36.9896318,126.919648
141514,평택시립오성도서관,37.0104751,126.980303
141513,평택시립장당도서관,37.0514017,127.0640751
141103,평택시립지산초록도서관,37.0789243,127.0603369
141580,평택시립진위도서관,37.1067112,127.0736811
141569,평택시립청북도서관,37.017143,126.9175348
141016,평택시립팽성도서관,36.9648641,127.0516539
147159,평해작은도서관,36.7275651,129.4420953
141110,포곡도서관,37.2789044,127.2326774
141515,포승작은도서관,36.9883653,126.845691
141553,포천시립가산도서관,37.8484029,127.186356
141634,포천시립선단도서관,37.8536908,127.1577518
141172,포천시립소흘도서관,37.8296046,127.1375338
141520,포천시립영북도서관,38.0876825,127.2741705
141102,포천시립영중꿈나무도서관,38.0056285,127.2453024
141094,포천시립일동도서관,37.9549363,127.3154556
141333,포천시립중앙도서관,37.9053026,127.206376
147061,포항시립대잠도서관,36.0191816,129.3432983
147073,포항시립동해석곡도서관,35.9908951,129.437424
147157,포항시립어린이영어도서관,36.006965,129.35568
147037,포항시립영암도서관,36.0127761,129.357763
147036,포항시립오천공공도서관,35.9686415,129.416446
147059,포항시립포은중앙도서관,36.0437354,129.3673931
148227,푸른숲작은도서관,34.8669546,128.6298359
131029,푸른작은도서관,35.6449758,129.3530831
742005,풀이음작은도서관,38.2053951,128.572028
146067,풍덕글마루작은도서관,34.9421877,127.4972527
141606,풍무도서관,37.6081598,126.7262332
111519,하계어린이도서관,37.6360746,127.0729493
141171,하남시 나룰도서관,37.553494,127.2080673
141579,하남시 덕풍도서관,37.5334758,127.2006586
141608,하남시 디지털도서관,37.5691025,127.18498
141622,하남시 미사도서관,37.5603879,127.1498654
141607,하남시 세미도서관,37.8448703,127.0625473
141636,하남시 위례도서관,37.4769457,127.1495765
741725,하남시 일가도서관,37.0011541,127.2732211
111215,하늘도서관,37.4874326,126.8809177
148060,하늘빛작은도서관,35.253942,128.869623
711073,하늘샘작은도서관,37.5697695,126.9613207
727014,하빈면 작은도서관,35.8995147,128.445877
141228,학마을작은도서관,38.0301448,126.9172184
727036,학산 작은도서관,35.8333518,128.5417135
727102,한강공원부키 도서관,35.9012052,128.5127602
711401,한강로동 작은도서관,37.5289836,126.9695151
148236,한국작은도서관,35.230341,128.86376
711404,한남동 작은도서관,37.5366059,126.9771397
141619,한내지혜의숲도서관,37.6217338,127.0676414
149023,한라도서관,33.476399,126.516288
125003,한밭도서관,36.309938,127.4096305
144146,한솔동도서관,36.4796401,127.254342
148079,한신책사랑작은도서관,35.231371,128.85225
148182,함안군립칠원도서관,35.30493,128.5154692
146039,해남군립도서관,34.5735147,126.5994916
111409,해다올 작은도서관,37.5460443,126.9855627
147071,해도동 바다섬작은도서관,36.0194979,129.370468
146069,해룡농어촌도서관,34.9137107,127.5367558
111481,해맞이역사도서관,37.5199255,126.8348562
141144,해밀도서관,37.4944602,126.7804681
150013,해밀동도서관,36.5278565,127.268668
727069,해안동 작은도서관,35.8820847,128.671675
111123,해오름도서관,37.5941774,127.010608
111257,해오름작은도서관,37.5558027,126.9421554
14703801,해평누리작은도서관,36.2105806,128.3831645
741191,햇빛21작은도서관,37.6272637,126.8421967
141200,햇빛마을작은도서관,37.6137087,126.8425587
141206,햇살이가득한작은도서관,37.487325,126.787116
131068,햇살작은도서관,35.6547535,129.3506303
711075,햇살작은도서관,37.5931931,126.9438887
727074,행복 작은도서관,35.8702091,128.6213122
111278,행복작은도서관,37.579981,126.9341374
141096,행복한작은도서관,37.5240083,126.785087
327003,행정정보문고센터,35.8297339,128.5326441
741562,향기나무도서관,37.6464986,127.0688377
741348,호법작은도서관,37.2228461,127.4247522
741160,호수공원작은도서관,37.6567441,126.7662508
130009,홍도도서관,36.3490198,127.4257139
144170,홍산공공도서관,36.2166586,126.7605264
111252,홍은도담도서관,37.6017786,126.9489927
111239,화랑도서관,37.6214718,127.083021
141042,화성시립남양도서관,37.2117634,126.8237722
141645,화성시립노을빛도서관,37.2078276,127.0337163
141611,화성시립동탄다원이음터도서관,37.199327,127.0970177
141624,화성시립동탄목동이음터도서관,37.1894624,127.1290084
141283,화성시립동탄복합문화센터도서관,37.200341,127.075396
141578,화성시립동탄중앙이음터도서관,37.1974276,127.1025942
141170,화성시립두빛나래어린이도서관,37.2094269,127.0566065
141241,화성시립둥지나래어린이도서관,37.1291399,126.9247636
141088,화성시립병점도서관,37.2122319,127.0461332
141233,화성시립봉담도서관,37.2192823,126.9490624
141076,화성시립삼괴도서관,37.0891899,126.8142869
141644,화성시립서연이음터도서관,37.2098027,127.0587938
141621,화성시립송린이음터도서관,37.2793971,126.8228144
141403,화성시립송산도서관,37.2165915,126.7393467
141637,화성시립왕배푸른숲도서관,37.1815826,127.1113377
141519,화성시립정남도서관,37.1682957,126.9830089
141575,화성시립진안도서관,37.2076452,127.0412738
141048,화성시립태안도서관,37.2054211,127.0142827
727009,화원읍 작은도서관,35.803917,128.500726
741189,화전작은도서관,37.5994295,126.8727318
148054,화정글샘도서관,35.26224,128.866382
131022,화정작은도서관,35.4958848,129.4226003
147111,환여동 해맞이꿈터작은도서관,36.0699147,129.39142
147122,환여동 환호어린이작은도서관,36.0677253,129.393047
148099,활천행복작은도서관,35.229053,128.899879
711403,회나무 작은도서관,37.5418503,126.9901255
711305,효경골마을문고,37.618792,126.915664
147110,효곡동 그린숲작은도서관,36.0297139,129.32309
147138,효곡동 열린작은도서관,36.00493,129.34348
147086,효곡동 행복작은도서관,36.0061655,129.332913
727064,효목1동 작은도서관,35.881649,128.644913
127048,효목2동 작은도서관,35.8781289,128.641231
711023,효창동 작은도서관,37.5424211,126.9618156
711398,후암동 작은도서관 북앤캠프,37.548659,126.9781385
711089,휘경1동 새싹마루 작은도서관,37.5928813,127.0657151
711088,휘경2동 꿈빛누리 작은도서관,37.5901107,127.0685658
111446,휘경어린이도서관,37.5886815,127.060597
141541,흥덕도서관,37.2632347,127.0862662
147147,흥해읍 내맏이작은도서관,36.08053,129.32993
147148,흥해읍 어리골작은도서관,36.07046,129.33377
747005,흥해읍 참새미작은도서관,36.0761422,129.339163
145074,희망남포작은도서관,35.8098809,126.7882714
